{
   "type": "FeatureCollection",
   "features": [
  {
    "type": "Feature",
    "geometry": {
       "type": "Point",
       "coordinates":  [ -6.278198,53.349562 ]
    },
    "properties": {
    "Number":42,
    "Name":"SMITHFIELD NORTH",
    "Address":"Smithfield North"
    }
  },
  {
    "type": "Feature",
    "geometry": {
       "type": "Point",
       "coordinates":  [ -6.265305,53.353462 ]
    },
    "properties": {
    "Number":30,
    "Name":"PARNELL SQUARE NORTH",
    "Address":"Parnell Square North"
    }
  },
  {
    "type": "Feature",
    "geometry": {
       "type": "Point",
       "coordinates":  [ -6.26298,53.336021 ]
    },
    "properties": {
    "Number":54,
    "Name":"CLONMEL STREET",
    "Address":"Clonmel Street"
    }
  },
  {
    "type": "Feature",
    "geometry": {
       "type": "Point",
       "coordinates":  [ -6.276142,53.359405 ]
    },
    "properties": {
    "Number":108,
    "Name":"AVONDALE ROAD",
    "Address":"Avondale Road"
    }
  },
  {
    "type": "Feature",
    "geometry": {
       "type": "Point",
       "coordinates":  [ -6.24153,53.33796 ]
    },
    "properties": {
    "Number":56,
    "Name":"MOUNT STREET LOWER",
    "Address":"Mount Street Lower"
    }
  },
  {
    "type": "Feature",
    "geometry": {
       "type": "Point",
       "coordinates":  [ -6.27012,53.343368 ]
    },
    "properties": {
    "Number":6,
    "Name":"CHRISTCHURCH PLACE",
    "Address":"Christchurch Place"
    }
  },
  {
    "type": "Feature",
    "geometry": {
       "type": "Point",
       "coordinates":  [ -6.265436,53.334123 ]
    },
    "properties": {
    "Number":18,
    "Name":"GRANTHAM STREET",
    "Address":"Grantham Street"
    }
  },
  {
    "type": "Feature",
    "geometry": {
       "type": "Point",
       "coordinates":  [ -6.250427,53.344304 ]
    },
    "properties": {
    "Number":32,
    "Name":"PEARSE STREET",
    "Address":"Pearse Street"
    }
  },
  {
    "type": "Feature",
    "geometry": {
       "type": "Point",
       "coordinates":  [ -6.262003,53.338755 ]
    },
    "properties": {
    "Number":52,
    "Name":"YORK STREET EAST",
    "Address":"York Street East"
    }
  },
  {
    "type": "Feature",
    "geometry": {
       "type": "Point",
       "coordinates":  [ -6.244239,53.347777 ]
    },
    "properties": {
    "Number":48,
    "Name":"EXCISE WALK",
    "Address":"Excise Walk"
    }
  },
  {
    "type": "Feature",
    "geometry": {
       "type": "Point",
       "coordinates":  [ -6.252825,53.336074 ]
    },
    "properties": {
    "Number":13,
    "Name":"FITZWILLIAM SQUARE WEST",
    "Address":"Fitzwilliam Square West"
    }
  },
  {
    "type": "Feature",
    "geometry": {
       "type": "Point",
       "coordinates":  [ -6.268044,53.330091 ]
    },
    "properties": {
    "Number":43,
    "Name":"PORTOBELLO ROAD",
    "Address":"Portobello Road"
    }
  },
  {
    "type": "Feature",
    "geometry": {
       "type": "Point",
       "coordinates":  [ -6.295594,53.339983 ]
    },
    "properties": {
    "Number":81,
    "Name":"ST. JAMES HOSPITAL (CENTRAL)",
    "Address":"St. James Hospital (Central)"
    }
  },
  {
    "type": "Feature",
    "geometry": {
       "type": "Point",
       "coordinates":  [ -6.265125,53.350929 ]
    },
    "properties": {
    "Number":31,
    "Name":"PARNELL STREET",
    "Address":"Parnell Street"
    }
  },
  {
    "type": "Feature",
    "geometry": {
       "type": "Point",
       "coordinates":  [ -6.256853,53.341515 ]
    },
    "properties": {
    "Number":98,
    "Name":"FREDERICK STREET SOUTH",
    "Address":"Frederick Street South"
    }
  },
  {
    "type": "Feature",
    "geometry": {
       "type": "Point",
       "coordinates":  [ -6.263371,53.344603 ]
    },
    "properties": {
    "Number":14,
    "Name":"FOWNES STREET UPPER",
    "Address":"Fownes Street Upper"
    }
  },
  {
    "type": "Feature",
    "geometry": {
       "type": "Point",
       "coordinates":  [ -6.262501,53.340927 ]
    },
    "properties": {
    "Number":1,
    "Name":"CLARENDON ROW",
    "Address":"Clarendon Row"
    }
  },
  {
    "type": "Feature",
    "geometry": {
       "type": "Point",
       "coordinates":  [ -6.254662,53.348279 ]
    },
    "properties": {
    "Number":23,
    "Name":"CUSTOM HOUSE",
    "Address":"Custom House"
    }
  },
  {
    "type": "Feature",
    "geometry": {
       "type": "Point",
       "coordinates":  [ -6.280337,53.35893 ]
    },
    "properties": {
    "Number":106,
    "Name":"RATHDOWN ROAD",
    "Address":"Rathdown Road"
    }
  },
  {
    "type": "Feature",
    "geometry": {
       "type": "Point",
       "coordinates":  [ -6.251557,53.357841 ]
    },
    "properties": {
    "Number":112,
    "Name":"NORTH CIRCULAR ROAD (O'CONNELL'S)",
    "Address":"North Circular Road (O'Connell's)"
    }
  },
  {
    "type": "Feature",
    "geometry": {
       "type": "Point",
       "coordinates":  [ -6.237153,53.344115 ]
    },
    "properties": {
    "Number":68,
    "Name":"HANOVER QUAY",
    "Address":"Hanover Quay"
    }
  },
  {
    "type": "Feature",
    "geometry": {
       "type": "Point",
       "coordinates":  [ -6.280531,53.343893 ]
    },
    "properties": {
    "Number":74,
    "Name":"OLIVER BOND STREET",
    "Address":"Oliver Bond Street"
    }
  },
  {
    "type": "Feature",
    "geometry": {
       "type": "Point",
       "coordinates":  [ -6.28525,53.347477 ]
    },
    "properties": {
    "Number":87,
    "Name":"COLLINS BARRACKS MUSEUM",
    "Address":"Collins Barracks Museum"
    }
  },
  {
    "type": "Feature",
    "geometry": {
       "type": "Point",
       "coordinates":  [ -6.300217,53.339005 ]
    },
    "properties": {
    "Number":84,
    "Name":"BROOKFIELD ROAD",
    "Address":"Brookfield Road"
    }
  },
  {
    "type": "Feature",
    "geometry": {
       "type": "Point",
       "coordinates":  [ -6.233451,53.344153 ]
    },
    "properties": {
    "Number":90,
    "Name":"BENSON STREET",
    "Address":"Benson Street"
    }
  },
  {
    "type": "Feature",
    "geometry": {
       "type": "Point",
       "coordinates":  [ -6.258371,53.334019 ]
    },
    "properties": {
    "Number":11,
    "Name":"EARLSFORT TERRACE",
    "Address":"Earlsfort Terrace"
    }
  },
  {
    "type": "Feature",
    "geometry": {
       "type": "Point",
       "coordinates":  [ -6.267732,53.340803 ]
    },
    "properties": {
    "Number":17,
    "Name":"GOLDEN LANE",
    "Address":"Golden Lane"
    }
  },
  {
    "type": "Feature",
    "geometry": {
       "type": "Point",
       "coordinates":  [ -6.255265,53.351464 ]
    },
    "properties": {
    "Number":45,
    "Name":"DEVERELL PLACE",
    "Address":"Deverell Place"
    }
  },
  {
    "type": "Feature",
    "geometry": {
       "type": "Point",
       "coordinates":  [ -6.248345,53.333653 ]
    },
    "properties": {
    "Number":114,
    "Name":"WILTON TERRACE (PARK)",
    "Address":"Wilton Terrace (Park)"
    }
  },
  {
    "type": "Feature",
    "geometry": {
       "type": "Point",
       "coordinates":  [ -6.277167,53.343105 ]
    },
    "properties": {
    "Number":72,
    "Name":"JOHN STREET WEST",
    "Address":"John Street West"
    }
  },
  {
    "type": "Feature",
    "geometry": {
       "type": "Point",
       "coordinates":  [ -6.24672,53.341428 ]
    },
    "properties": {
    "Number":63,
    "Name":"FENIAN STREET",
    "Address":"Fenian Street"
    }
  },
  {
    "type": "Feature",
    "geometry": {
       "type": "Point",
       "coordinates":  [ -6.248606,53.338614 ]
    },
    "properties": {
    "Number":113,
    "Name":"MERRION SQUARE SOUTH",
    "Address":"Merrion Square South"
    }
  },
  {
    "type": "Feature",
    "geometry": {
       "type": "Point",
       "coordinates":  [ -6.231291,53.341833 ]
    },
    "properties": {
    "Number":91,
    "Name":"SOUTH DOCK ROAD",
    "Address":"South Dock Road"
    }
  },
  {
    "type": "Feature",
    "geometry": {
       "type": "Point",
       "coordinates":  [ -6.246154,53.346637 ]
    },
    "properties": {
    "Number":99,
    "Name":"CITY QUAY",
    "Address":"City Quay"
    }
  },
  {
    "type": "Feature",
    "geometry": {
       "type": "Point",
       "coordinates":  [ -6.263578,53.343034 ]
    },
    "properties": {
    "Number":9,
    "Name":"EXCHEQUER STREET",
    "Address":"Exchequer Street"
    }
  },
  {
    "type": "Feature",
    "geometry": {
       "type": "Point",
       "coordinates":  [ -6.230852,53.346867 ]
    },
    "properties": {
    "Number":67,
    "Name":"THE POINT",
    "Address":"The Point"
    }
  },
  {
    "type": "Feature",
    "geometry": {
       "type": "Point",
       "coordinates":  [ -6.260714,53.33403 ]
    },
    "properties": {
    "Number":55,
    "Name":"HATCH STREET",
    "Address":"Hatch Street"
    }
  },
  {
    "type": "Feature",
    "geometry": {
       "type": "Point",
       "coordinates":  [ -6.243576,53.346026 ]
    },
    "properties": {
    "Number":62,
    "Name":"LIME STREET",
    "Address":"Lime Street"
    }
  },
  {
    "type": "Feature",
    "geometry": {
       "type": "Point",
       "coordinates":  [ -6.260177,53.330662 ]
    },
    "properties": {
    "Number":5,
    "Name":"CHARLEMONT PLACE",
    "Address":"Charlemont Street"
    }
  },
  {
    "type": "Feature",
    "geometry": {
       "type": "Point",
       "coordinates":  [ -6.310015,53.342113 ]
    },
    "properties": {
    "Number":97,
    "Name":"KILMAINHAM GAOL",
    "Address":"Kilmainham Gaol"
    }
  },
  {
    "type": "Feature",
    "geometry": {
       "type": "Point",
       "coordinates":  [ -6.263232,53.357043 ]
    },
    "properties": {
    "Number":61,
    "Name":"HARDWICKE PLACE",
    "Address":"Hardwicke Place"
    }
  },
  {
    "type": "Feature",
    "geometry": {
       "type": "Point",
       "coordinates":  [ -6.267459,53.348875 ]
    },
    "properties": {
    "Number":77,
    "Name":"WOLFE TONE STREET",
    "Address":"Wolfe Tone Street"
    }
  },
  {
    "type": "Feature",
    "geometry": {
       "type": "Point",
       "coordinates":  [ -6.275233,53.342081 ]
    },
    "properties": {
    "Number":73,
    "Name":"FRANCIS STREET",
    "Address":"Francis Street"
    }
  },
  {
    "type": "Feature",
    "geometry": {
       "type": "Point",
       "coordinates":  [ -6.272976,53.346874 ]
    },
    "properties": {
    "Number":4,
    "Name":"GREEK STREET",
    "Address":"Greek Street"
    }
  },
  {
    "type": "Feature",
    "geometry": {
       "type": "Point",
       "coordinates":  [ -6.240928,53.347932 ]
    },
    "properties": {
    "Number":49,
    "Name":"GUILD STREET",
    "Address":"Guild Street"
    }
  },
  {
    "type": "Feature",
    "geometry": {
       "type": "Point",
       "coordinates":  [ -6.245575,53.334432 ]
    },
    "properties": {
    "Number":19,
    "Name":"HERBERT PLACE",
    "Address":"Herbert Place"
    }
  },
  {
    "type": "Feature",
    "geometry": {
       "type": "Point",
       "coordinates":  [ -6.275071,53.343565 ]
    },
    "properties": {
    "Number":7,
    "Name":"HIGH STREET",
    "Address":"High Street"
    }
  },
  {
    "type": "Feature",
    "geometry": {
       "type": "Point",
       "coordinates":  [ -6.260348,53.359624 ]
    },
    "properties": {
    "Number":60,
    "Name":"NORTH CIRCULAR ROAD",
    "Address":"North Circular Road"
    }
  },
  {
    "type": "Feature",
    "geometry": {
       "type": "Point",
       "coordinates":  [ -6.269425,53.354929 ]
    },
    "properties": {
    "Number":102,
    "Name":"WESTERN WAY",
    "Address":"Western Way"
    }
  },
  {
    "type": "Feature",
    "geometry": {
       "type": "Point",
       "coordinates":  [ -6.25294,53.350974 ]
    },
    "properties": {
    "Number":38,
    "Name":"TALBOT STREET",
    "Address":"Talbot Street"
    }
  },
  {
    "type": "Feature",
    "geometry": {
       "type": "Point",
       "coordinates":  [ -6.26059,53.337132 ]
    },
    "properties": {
    "Number":53,
    "Name":"NEWMAN HOUSE",
    "Address":"Newman House"
    }
  },
  {
    "type": "Feature",
    "geometry": {
       "type": "Point",
       "coordinates":  [ -6.240642,53.339218 ]
    },
    "properties": {
    "Number":58,
    "Name":"SIR PATRICK DUN'S",
    "Address":"Sir Patrick's Dun"
    }
  },
  {
    "type": "Feature",
    "geometry": {
       "type": "Point",
       "coordinates":  [ -6.234749,53.347122 ]
    },
    "properties": {
    "Number":66,
    "Name":"NEW CENTRAL BANK",
    "Address":"New Central Bank"
    }
  },
  {
    "type": "Feature",
    "geometry": {
       "type": "Point",
       "coordinates":  [ -6.278424,53.355173 ]
    },
    "properties": {
    "Number":104,
    "Name":"GRANGEGORMAN LOWER (CENTRAL)",
    "Address":"Grangegorman Lower (Central)"
    }
  },
  {
    "type": "Feature",
    "geometry": {
       "type": "Point",
       "coordinates":  [ -6.273507,53.350291 ]
    },
    "properties": {
    "Number":101,
    "Name":"KING STREET NORTH",
    "Address":"King Street North"
    }
  },
  {
    "type": "Feature",
    "geometry": {
       "type": "Point",
       "coordinates":  [ -6.247579,53.354845 ]
    },
    "properties": {
    "Number":115,
    "Name":"KILLARNEY STREET",
    "Address":"Killarney Street"
    }
  },
  {
    "type": "Feature",
    "geometry": {
       "type": "Point",
       "coordinates":  [ -6.24551,53.335742 ]
    },
    "properties": {
    "Number":47,
    "Name":"HERBERT STREET",
    "Address":"Herbert Street"
    }
  },
  {
    "type": "Feature",
    "geometry": {
       "type": "Point",
       "coordinates":  [ -6.248048,53.347884 ]
    },
    "properties": {
    "Number":8,
    "Name":"CUSTOM HOUSE QUAY",
    "Address":"Custom House Quay"
    }
  },
  {
    "type": "Feature",
    "geometry": {
       "type": "Point",
       "coordinates":  [ -6.258117,53.341288 ]
    },
    "properties": {
    "Number":27,
    "Name":"MOLESWORTH STREET",
    "Address":"Molesworth Street"
    }
  },
  {
    "type": "Feature",
    "geometry": {
       "type": "Point",
       "coordinates":  [ -6.252192,53.347508 ]
    },
    "properties": {
    "Number":16,
    "Name":"GEORGES QUAY",
    "Address":"Georges Quay"
    }
  },
  {
    "type": "Feature",
    "geometry": {
       "type": "Point",
       "coordinates":  [ -6.305085,53.341805 ]
    },
    "properties": {
    "Number":96,
    "Name":"KILMAINHAM LANE",
    "Address":"Kilmainham Lane"
    }
  },
  {
    "type": "Feature",
    "geometry": {
       "type": "Point",
       "coordinates":  [ -6.29719,53.341645 ]
    },
    "properties": {
    "Number":82,
    "Name":"MOUNT BROWN",
    "Address":"Mount Brown"
    }
  },
  {
    "type": "Feature",
    "geometry": {
       "type": "Point",
       "coordinates":  [ -6.287661,53.342296 ]
    },
    "properties": {
    "Number":76,
    "Name":"MARKET STREET SOUTH",
    "Address":"Market Street South"
    }
  },
  {
    "type": "Feature",
    "geometry": {
       "type": "Point",
       "coordinates":  [ -6.267699,53.337757 ]
    },
    "properties": {
    "Number":71,
    "Name":"KEVIN STREET",
    "Address":"Kevin Street"
    }
  },
  {
    "type": "Feature",
    "geometry": {
       "type": "Point",
       "coordinates":  [ -6.265601,53.358115 ]
    },
    "properties": {
    "Number":79,
    "Name":"ECCLES STREET EAST",
    "Address":"Eccles Street East"
    }
  },
  {
    "type": "Feature",
    "geometry": {
       "type": "Point",
       "coordinates":  [ -6.238695,53.342638 ]
    },
    "properties": {
    "Number":69,
    "Name":"GRAND CANAL DOCK",
    "Address":"Grand Canal Dock"
    }
  },
  {
    "type": "Feature",
    "geometry": {
       "type": "Point",
       "coordinates":  [ -6.246548,53.339434 ]
    },
    "properties": {
    "Number":25,
    "Name":"MERRION SQUARE EAST",
    "Address":"Merrion Square East"
    }
  },
  {
    "type": "Feature",
    "geometry": {
       "type": "Point",
       "coordinates":  [ -6.264699,53.339334 ]
    },
    "properties": {
    "Number":51,
    "Name":"YORK STREET WEST",
    "Address":"York Street West"
    }
  },
  {
    "type": "Feature",
    "geometry": {
       "type": "Point",
       "coordinates":  [ -6.26199,53.337494 ]
    },
    "properties": {
    "Number":37,
    "Name":"ST. STEPHEN'S GREEN SOUTH",
    "Address":"St. Stephen's Green South"
    }
  },
  {
    "type": "Feature",
    "geometry": {
       "type": "Point",
       "coordinates":  [ -6.261397,53.35561 ]
    },
    "properties": {
    "Number":59,
    "Name":"DENMARK STREET GREAT",
    "Address":"Denmark Street Great"
    }
  },
  {
    "type": "Feature",
    "geometry": {
       "type": "Point",
       "coordinates":  [ -6.29706,53.343897 ]
    },
    "properties": {
    "Number":95,
    "Name":"ROYAL HOSPITAL",
    "Address":"Royal Hospital"
    }
  },
  {
    "type": "Feature",
    "geometry": {
       "type": "Point",
       "coordinates":  [ -6.297804,53.346985 ]
    },
    "properties": {
    "Number":94,
    "Name":"HEUSTON STATION (CAR PARK)",
    "Address":"Heuston Station (Car Park)"
    }
  },
  {
    "type": "Feature",
    "geometry": {
       "type": "Point",
       "coordinates":  [ -6.278378,53.355954 ]
    },
    "properties": {
    "Number":105,
    "Name":"GRANGEGORMAN LOWER (NORTH)",
    "Address":"Grangegorman Lower (North)"
    }
  },
  {
    "type": "Feature",
    "geometry": {
       "type": "Point",
       "coordinates":  [ -6.256035,53.337824 ]
    },
    "properties": {
    "Number":36,
    "Name":"ST. STEPHEN'S GREEN EAST",
    "Address":"St. Stephen's Green East"
    }
  },
  {
    "type": "Feature",
    "geometry": {
       "type": "Point",
       "coordinates":  [ -6.296924,53.346603 ]
    },
    "properties": {
    "Number":93,
    "Name":"HEUSTON STATION (CENTRAL)",
    "Address":"Heuston Station (Central)"
    }
  },
  {
    "type": "Feature",
    "geometry": {
       "type": "Point",
       "coordinates":  [ -6.254614,53.345922 ]
    },
    "properties": {
    "Number":22,
    "Name":"TOWNSEND STREET",
    "Address":"Townsend Street"
    }
  },
  {
    "type": "Feature",
    "geometry": {
       "type": "Point",
       "coordinates":  [ -6.279696,53.35023 ]
    },
    "properties": {
    "Number":50,
    "Name":"GEORGES LANE",
    "Address":"George's Lane"
    }
  },
  {
    "type": "Feature",
    "geometry": {
       "type": "Point",
       "coordinates":  [ -6.273717,53.356307 ]
    },
    "properties": {
    "Number":110,
    "Name":"PHIBSBOROUGH ROAD",
    "Address":"Phibsborough Road"
    }
  },
  {
    "type": "Feature",
    "geometry": {
       "type": "Point",
       "coordinates":  [ -6.269779,53.359246 ]
    },
    "properties": {
    "Number":12,
    "Name":"ECCLES STREET",
    "Address":"Eccles Street"
    }
  },
  {
    "type": "Feature",
    "geometry": {
       "type": "Point",
       "coordinates":  [ -6.265163,53.330362 ]
    },
    "properties": {
    "Number":34,
    "Name":"PORTOBELLO HARBOUR",
    "Address":"Portobello Harbour"
    }
  },
  {
    "type": "Feature",
    "geometry": {
       "type": "Point",
       "coordinates":  [ -6.264828,53.359967 ]
    },
    "properties": {
    "Number":78,
    "Name":"MATER HOSPITAL",
    "Address":"Mater Hospital"
    }
  },
  {
    "type": "Feature",
    "geometry": {
       "type": "Point",
       "coordinates":  [ -6.26814,53.356769 ]
    },
    "properties": {
    "Number":2,
    "Name":"BLESSINGTON STREET",
    "Address":"Blessington Street"
    }
  },
  {
    "type": "Feature",
    "geometry": {
       "type": "Point",
       "coordinates":  [ -6.287409,53.343456 ]
    },
    "properties": {
    "Number":75,
    "Name":"JAMES STREET",
    "Address":"James Street"
    }
  },
  {
    "type": "Feature",
    "geometry": {
       "type": "Point",
       "coordinates":  [ -6.256359,53.356717 ]
    },
    "properties": {
    "Number":111,
    "Name":"MOUNTJOY SQUARE EAST",
    "Address":"Mountjoy Square East"
    }
  },
  {
    "type": "Feature",
    "geometry": {
       "type": "Point",
       "coordinates":  [ -6.251988,53.339764 ]
    },
    "properties": {
    "Number":26,
    "Name":"MERRION SQUARE WEST",
    "Address":"Merrion Square West"
    }
  },
  {
    "type": "Feature",
    "geometry": {
       "type": "Point",
       "coordinates":  [ -6.238523,53.34744 ]
    },
    "properties": {
    "Number":65,
    "Name":"CONVENTION CENTRE",
    "Address":"Convention Centre"
    }
  },
  {
    "type": "Feature",
    "geometry": {
       "type": "Point",
       "coordinates":  [ -6.264423,53.355473 ]
    },
    "properties": {
    "Number":15,
    "Name":"HARDWICKE STREET",
    "Address":"Hardwicke Street"
    }
  },
  {
    "type": "Feature",
    "geometry": {
       "type": "Point",
       "coordinates":  [ -6.291804,53.347972 ]
    },
    "properties": {
    "Number":86,
    "Name":"PARKGATE STREET",
    "Address":"Parkgate Street"
    }
  },
  {
    "type": "Feature",
    "geometry": {
       "type": "Point",
       "coordinates":  [ -6.278214,53.347692 ]
    },
    "properties": {
    "Number":35,
    "Name":"SMITHFIELD",
    "Address":"Smithfield"
    }
  },
  {
    "type": "Feature",
    "geometry": {
       "type": "Point",
       "coordinates":  [ -6.266802,53.344007 ]
    },
    "properties": {
    "Number":10,
    "Name":"DAME STREET",
    "Address":"Dame Street"
    }
  },
  {
    "type": "Feature",
    "geometry": {
       "type": "Point",
       "coordinates":  [ -6.292041,53.347106 ]
    },
    "properties": {
    "Number":100,
    "Name":"HEUSTON BRIDGE (SOUTH)",
    "Address":"Heuston Bridge (South)"
    }
  },
  {
    "type": "Feature",
    "geometry": {
       "type": "Point",
       "coordinates":  [ -6.260533,53.352149 ]
    },
    "properties": {
    "Number":24,
    "Name":"CATHAL BRUGHA STREET",
    "Address":"Cathal Brugha Street"
    }
  },
  {
    "type": "Feature",
    "geometry": {
       "type": "Point",
       "coordinates":  [ -6.247163,53.345203 ]
    },
    "properties": {
    "Number":64,
    "Name":"SANDWITH STREET",
    "Address":"Sandwith Street"
    }
  },
  {
    "type": "Feature",
    "geometry": {
       "type": "Point",
       "coordinates":  [ -6.249319,53.353331 ]
    },
    "properties": {
    "Number":109,
    "Name":"BUCKINGHAM STREET LOWER",
    "Address":"Buckingham Street Lower"
    }
  },
  {
    "type": "Feature",
    "geometry": {
       "type": "Point",
       "coordinates":  [ -6.30395,53.338776 ]
    },
    "properties": {
    "Number":85,
    "Name":"ROTHE ABBEY",
    "Address":"Rothe Abbey"
    }
  },
  {
    "type": "Feature",
    "geometry": {
       "type": "Point",
       "coordinates":  [ -6.281866,53.359157 ]
    },
    "properties": {
    "Number":107,
    "Name":"CHARLEVILLE ROAD",
    "Address":"Charleville Road"
    }
  },
  {
    "type": "Feature",
    "geometry": {
       "type": "Point",
       "coordinates":  [ -6.260311,53.349013 ]
    },
    "properties": {
    "Number":33,
    "Name":"PRINCES STREET / O'CONNELL STREET",
    "Address":"Princes Street / O'Connell Street"
    }
  },
  {
    "type": "Feature",
    "geometry": {
       "type": "Point",
       "coordinates":  [ -6.260641,53.358437 ]
    },
    "properties": {
    "Number":44,
    "Name":"UPPER SHERRARD STREET",
    "Address":"Upper Sherrard Street"
    }
  },
  {
    "type": "Feature",
    "geometry": {
       "type": "Point",
       "coordinates":  [ -6.2509,53.335211 ]
    },
    "properties": {
    "Number":89,
    "Name":"FITZWILLIAM SQUARE EAST",
    "Address":"Fitzwilliam Square East"
    }
  },
  {
    "type": "Feature",
    "geometry": {
       "type": "Point",
       "coordinates":  [ -6.243778,53.339629 ]
    },
    "properties": {
    "Number":57,
    "Name":"GRATTAN STREET",
    "Address":"Grattan Street"
    }
  },
  {
    "type": "Feature",
    "geometry": {
       "type": "Point",
       "coordinates":  [ -6.292951,53.341359 ]
    },
    "properties": {
    "Number":80,
    "Name":"ST JAMES HOSPITAL (LUAS)",
    "Address":"St James Hospital (Luas)"
    }
  },
  {
    "type": "Feature",
    "geometry": {
       "type": "Point",
       "coordinates":  [ -6.257942,53.332763 ]
    },
    "properties": {
    "Number":41,
    "Name":"HARCOURT TERRACE",
    "Address":"Harcourt Terrace"
    }
  },
  {
    "type": "Feature",
    "geometry": {
       "type": "Point",
       "coordinates":  [ -6.269859,53.351182 ]
    },
    "properties": {
    "Number":3,
    "Name":"BOLTON STREET",
    "Address":"Bolton Street"
    }
  },
  {
    "type": "Feature",
    "geometry": {
       "type": "Point",
       "coordinates":  [ -6.264192,53.347082 ]
    },
    "properties": {
    "Number":46,
    "Name":"STRAND STREET GREAT",
    "Address":"Strand Street Great"
    }
  },
  {
    "type": "Feature",
    "geometry": {
       "type": "Point",
       "coordinates":  [ -6.266651,53.3483 ]
    },
    "properties": {
    "Number":40,
    "Name":"JERVIS STREET",
    "Address":"Jervis Street"
    }
  },
  {
    "type": "Feature",
    "geometry": {
       "type": "Point",
       "coordinates":  [ -6.268001,53.346057 ]
    },
    "properties": {
    "Number":29,
    "Name":"ORMOND QUAY UPPER",
    "Address":"Ormond Quay Upper"
    }
  },
  {
    "type": "Feature",
    "geometry": {
       "type": "Point",
       "coordinates":  [ -6.236198,53.341655 ]
    },
    "properties": {
    "Number":70,
    "Name":"BARROW STREET",
    "Address":"Barrow Street"
    }
  },
  {
    "type": "Feature",
    "geometry": {
       "type": "Point",
       "coordinates":  [ -6.278681,53.354663 ]
    },
    "properties": {
    "Number":103,
    "Name":"GRANGEGORMAN LOWER (SOUTH)",
    "Address":"Grangegorman Lower (South)"
    }
  },
  {
    "type": "Feature",
    "geometry": {
       "type": "Point",
       "coordinates":  [ -6.258586,53.356299 ]
    },
    "properties": {
    "Number":28,
    "Name":"MOUNTJOY SQUARE WEST",
    "Address":"Mountjoy Square West"
    }
  },
  {
    "type": "Feature",
    "geometry": {
       "type": "Point",
       "coordinates":  [ -6.252717,53.332383 ]
    },
    "properties": {
    "Number":39,
    "Name":"WILTON TERRACE",
    "Address":"Wilton Terrace"
    }
  },
  {
    "type": "Feature",
    "geometry": {
       "type": "Point",
       "coordinates":  [ -6.308191,53.340714 ]
    },
    "properties": {
    "Number":83,
    "Name":"EMMET ROAD",
    "Address":"Emmet Road"
    }
  },
  {
    "type": "Feature",
    "geometry": {
       "type": "Point",
       "coordinates":  [ -6.292432,53.347802 ]
    },
    "properties": {
    "Number":92,
    "Name":"HEUSTON BRIDGE (NORTH)",
    "Address":"Heuston Bridge (North)"
    }
  },
  {
    "type": "Feature",
    "geometry": {
       "type": "Point",
       "coordinates":  [ -6.254485,53.34218 ]
    },
    "properties": {
    "Number":21,
    "Name":"LEINSTER STREET SOUTH",
    "Address":"Leinster Street South"
    }
  },
  {
    "type": "Feature",
    "geometry": {
       "type": "Point",
       "coordinates":  [ -6.281637,53.3488 ]
    },
    "properties": {
    "Number":88,
    "Name":"BLACKHALL PLACE",
    "Address":"Blackhall Place"
    }
  }
]
}